,City,Country,Lat,Lng,Max Temp,Humidity,Cloudiness,Wind Speed,Current Description
0,Plotnikovo,RU,55.0247,85.9436,50.34,44,94,10.2,overcast clouds
1,Vaini,TO,-21.2,-175.2,71.76,94,20,3.44,few clouds
2,Hermanus,ZA,-34.4187,19.2345,66.79,70,67,7.58,broken clouds
3,Torbay,CA,47.6666,-52.7314,43.57,87,92,14.0,overcast clouds
4,Port Elizabeth,ZA,-33.918,25.5701,68.09,72,0,17.27,clear sky
5,Sur,OM,22.5667,59.5289,95.27,41,25,12.97,scattered clouds
6,Vila Franca Do Campo,PT,37.7167,-25.4333,70.2,87,100,9.44,overcast clouds
7,Castro,BR,-24.7911,-50.0119,47.53,96,42,9.01,scattered clouds
8,Kedrovyy,RU,56.1667,91.8167,41.41,87,99,4.0,light rain
9,Munchberg,DE,50.2,11.7833,69.67,81,74,4.0,broken clouds
10,Palembang,ID,-2.9167,104.7458,87.89,62,40,5.75,scattered clouds
11,Chokurdakh,RU,70.6333,147.9167,48.83,39,8,15.17,clear sky
12,Mataura,NZ,-46.1927,168.8643,38.48,95,61,3.31,broken clouds
13,Atuona,PF,-9.8,-139.0333,78.33,75,29,18.05,scattered clouds
14,Willemstad,CW,12.1084,-68.9335,80.51,78,20,10.36,few clouds
15,Winnemucca,US,40.973,-117.7357,60.85,39,0,0.0,clear sky
16,Cocobeach,GA,1.0002,9.5823,79.45,79,63,6.53,broken clouds
17,Shenjiamen,CN,29.9576,122.298,71.02,97,99,10.42,overcast clouds
18,Port Alfred,ZA,-33.5906,26.891,68.18,71,39,7.0,scattered clouds
19,Omsukchan,RU,62.5333,155.8,54.88,81,100,2.42,moderate rain
20,Aksarka,RU,66.5606,67.7975,48.58,24,16,23.31,few clouds
21,La Paz,BO,-16.5,-68.15,33.78,100,40,6.91,fog
22,Adrar,MR,20.5022,-10.0711,93.52,13,81,22.66,broken clouds
23,Datong,CN,40.0936,113.2914,81.32,13,12,18.05,few clouds
24,Qaanaaq,GL,77.484,-69.3632,24.35,92,86,8.52,overcast clouds
25,Kavieng,PG,-2.5744,150.7967,81.55,69,46,10.65,scattered clouds
26,Great Bend,US,38.3645,-98.7648,61.03,95,100,9.22,moderate rain
27,Ushuaia,AR,-54.8,-68.3,35.26,80,40,33.38,light intensity drizzle
28,Arraial Do Cabo,BR,-22.9661,-42.0278,69.66,68,75,9.22,broken clouds
29,Chara,RU,56.9064,118.2631,66.29,45,93,6.76,overcast clouds
30,Allende,MX,25.2833,-100.0167,71.55,61,1,4.25,clear sky
31,Punta Arenas,CL,-53.15,-70.9167,33.91,86,20,9.22,few clouds
32,Kodiak,US,57.79,-152.4072,56.71,51,0,6.91,clear sky
33,Oranjemund,NA,-28.55,16.4333,69.8,38,1,7.29,clear sky
34,Apac,UG,1.9756,32.5386,82.74,47,87,4.68,overcast clouds
35,Zhigansk,RU,66.7697,123.3711,59.4,65,97,11.65,moderate rain
36,Pevek,RU,69.7008,170.3133,29.93,95,100,13.65,light snow
37,Bartica,GY,6.4,-58.6167,75.52,99,100,0.54,overcast clouds
38,Anadyr,RU,64.75,177.4833,36.1,87,0,0.0,clear sky
39,Cape Town,ZA,-33.9258,18.4232,67.1,65,0,5.75,clear sky
40,Pitimbu,BR,-7.4706,-34.8086,75.79,88,81,7.25,broken clouds
41,Kapaa,US,22.0752,-159.319,73.38,91,75,9.22,light rain
42,Ponta Do Sol,PT,32.6667,-17.1,73.71,66,4,2.01,clear sky
43,Yellowknife,CA,62.456,-114.3525,52.32,66,20,5.75,few clouds
44,Bluff,NZ,-46.6,168.3333,38.8,83,73,10.4,broken clouds
45,Barrow,US,71.2906,-156.7887,28.42,86,100,20.71,overcast clouds
46,Lashio,MM,22.9333,97.75,78.91,85,91,2.3,overcast clouds
47,Yima,CN,34.7381,111.8839,71.71,72,100,12.21,moderate rain
48,Tiznit,MA,29.5833,-9.5,67.95,62,100,4.7,overcast clouds
49,Bengkulu,ID,-3.8004,102.2655,82.11,74,84,4.14,broken clouds
50,Marawi,PH,7.9986,124.2928,70.02,97,98,2.46,overcast clouds
51,Barao De Melgaco,BR,-16.1944,-55.9675,63.36,92,28,3.38,scattered clouds
52,Bredasdorp,ZA,-34.5322,20.0403,66.0,59,33,11.07,scattered clouds
53,Khatanga,RU,71.9667,102.5,32.14,75,100,20.67,overcast clouds
54,Springdale,US,36.1867,-94.1288,56.05,95,0,0.0,clear sky
55,Souillac,MU,-20.5167,57.5167,79.18,61,40,16.11,scattered clouds
56,Cockburn Town,TC,21.4612,-71.1419,80.56,78,40,13.8,scattered clouds
57,Mar Del Plata,AR,-38.0023,-57.5575,44.94,87,0,3.44,clear sky
58,Rikitea,PF,-23.1203,-134.9692,76.48,69,10,11.43,clear sky
59,Hithadhoo,MV,-0.6,73.0833,84.11,70,89,8.5,overcast clouds
60,Solnechnyy,RU,50.7214,136.6319,54.61,67,52,3.47,broken clouds
61,Bulungu,CD,-4.55,18.6,89.62,33,24,6.8,few clouds
62,Jamestown,US,42.097,-79.2353,51.39,58,0,5.75,clear sky
63,Garwolin,PL,51.8975,21.6147,67.71,92,100,5.32,overcast clouds
64,Dingle,PH,10.9995,122.6711,82.58,76,57,4.18,broken clouds
65,Yazoo City,US,32.8551,-90.4056,66.7,81,36,5.73,scattered clouds
66,Albany,US,42.6001,-73.9662,54.79,87,4,2.21,clear sky
67,Sitka,US,57.0531,-135.33,57.09,72,75,0.0,broken clouds
68,Yerbogachen,RU,61.2767,108.0108,60.48,27,34,11.54,scattered clouds
69,Tuktoyaktuk,CA,69.4541,-133.0374,30.2,93,100,9.6,overcast clouds
70,Wahiawa,US,21.5028,-158.0236,71.92,73,75,3.44,broken clouds
71,Guane,CU,22.2025,-84.0875,75.07,95,50,5.79,scattered clouds
72,Kesova Gora,RU,57.5836,37.2922,61.79,64,61,10.76,broken clouds
73,Talnakh,RU,69.4865,88.3972,31.21,97,100,4.59,light snow
74,Narsaq,GL,60.9167,-46.05,57.42,33,1,5.64,clear sky
75,Khuzdar,PK,27.7384,66.6434,96.3,4,0,4.18,clear sky
76,Saskylakh,RU,71.9167,114.0833,40.3,90,100,15.66,overcast clouds
77,Vao,NC,-22.6667,167.4833,71.83,68,25,12.71,scattered clouds
78,Maniitsoq,GL,65.4167,-52.9,44.73,56,46,7.63,scattered clouds
79,Aloleng,PH,16.1307,119.7824,84.58,69,71,7.65,broken clouds
80,Provideniya,RU,64.3833,-173.3,48.76,61,100,3.91,overcast clouds
81,Iskateley,RU,67.6803,53.1512,58.24,21,3,15.97,clear sky
82,Te Anau,NZ,-45.4167,167.7167,39.07,91,53,1.32,light rain
83,Avera,US,33.194,-82.5271,68.05,97,64,6.87,broken clouds
84,Kuytun,RU,54.3419,101.5036,68.43,37,23,16.2,few clouds
85,Mpika,ZM,-11.8343,31.4529,65.53,49,14,11.25,few clouds
86,Saint Anthony,US,45.0205,-93.218,58.48,60,0,8.05,clear sky
87,Annau,TM,37.8876,58.516,92.7,12,20,4.61,few clouds
88,Boden,SE,65.8252,21.6886,62.6,48,42,7.81,scattered clouds
89,Dikson,RU,73.5069,80.5464,29.32,76,15,13.78,few clouds
90,Severo-Kurilsk,RU,50.6789,156.125,41.81,90,71,8.79,broken clouds
91,Codrington,AU,-38.2667,141.9667,51.04,88,100,15.73,light rain
92,Estelle,US,29.8458,-90.1067,78.78,80,0,6.91,clear sky
93,Shache,CN,38.4167,77.2406,88.25,12,88,7.27,overcast clouds
94,Namatanai,PG,-3.6667,152.4333,80.35,74,94,7.63,overcast clouds
95,Novyy Urgal,RU,51.0736,132.5642,58.8,60,48,4.68,scattered clouds
96,Cayenne,GF,4.9333,-52.3333,77.09,1,20,2.3,few clouds
97,Shangzhi,CN,45.2167,127.9667,59.27,69,100,16.04,light rain
98,Hilo,US,19.7297,-155.09,79.29,100,100,3.44,moderate rain
99,Carnarvon,AU,-24.8667,113.6333,71.29,43,18,16.73,few clouds
100,Cap Malheureux,MU,-19.9842,57.6142,79.47,56,12,11.99,few clouds
101,Lebu,CL,-37.6167,-73.65,52.29,96,100,7.56,moderate rain
102,Victoria,HK,22.2855,114.1577,89.19,81,100,15.01,overcast clouds
103,Maryborough,AU,-25.5333,152.7,64.11,76,72,5.3,broken clouds
104,Carutapera,BR,-1.195,-46.02,74.88,93,91,2.75,overcast clouds
105,Puerto Ayora,EC,-0.7393,-90.3518,70.74,88,97,5.91,overcast clouds
106,Taree,AU,-31.9,152.4667,46.06,81,0,4.83,clear sky
107,Noyabrsk,RU,63.1994,75.4507,32.34,92,100,23.09,light snow
108,Asau,RO,46.4333,26.4,78.28,51,99,6.38,overcast clouds
109,Sechura,PE,-5.5569,-80.8222,65.93,82,100,12.44,overcast clouds
110,Busselton,AU,-33.65,115.3333,55.17,79,37,9.35,scattered clouds
111,Pervomayskiy,RU,53.2485,40.2871,66.58,55,8,6.46,clear sky
112,Fortuna,US,40.5982,-124.1573,55.74,95,100,6.91,light rain
113,Taoudenni,ML,22.6783,-3.9836,106.47,9,57,22.39,broken clouds
114,Bambous Virieux,MU,-20.3428,57.7575,79.21,61,40,16.11,scattered clouds
115,Upata,VE,8.0086,-62.3989,71.19,98,71,3.15,broken clouds
116,Yumen,CN,40.2833,97.2,81.66,9,81,10.65,broken clouds
117,Guerrero Negro,MX,27.9769,-114.0611,59.63,93,5,9.73,clear sky
118,Mananara,MG,-16.1667,49.7667,72.0,89,88,6.46,light rain
119,Arona,ES,28.0996,-16.681,67.12,59,20,23.02,few clouds
120,Flin Flon,CA,54.7682,-101.865,36.41,97,74,5.66,broken clouds
121,Poum,NC,-20.2333,164.0167,76.19,73,100,10.85,overcast clouds
122,Sandwick,GB,60.0,-1.25,49.82,87,75,10.36,broken clouds
123,Bethel,US,41.3712,-73.414,58.5,88,0,3.44,clear sky
124,Griffith,US,41.5284,-87.4237,61.9,97,0,4.61,clear sky
125,Vitim,RU,59.4511,112.5578,68.81,37,69,8.08,broken clouds
126,Hermiston,US,45.8404,-119.2895,55.81,90,100,5.95,overcast clouds
127,Kirakira,SB,-10.4544,161.9205,81.05,81,85,10.87,overcast clouds
128,Gladstone,AU,-23.85,151.25,66.13,77,24,4.61,few clouds
129,Esperance,AU,-33.8667,121.9,55.24,68,98,23.38,overcast clouds
130,Ancud,CL,-41.8697,-73.8203,48.02,93,70,9.55,broken clouds
131,Barahona,DO,18.2085,-71.1008,76.1,88,83,3.31,broken clouds
132,Norman Wells,CA,65.282,-126.8329,39.24,87,75,0.0,broken clouds
133,Ucluelet,CA,48.9329,-125.5528,54.09,94,100,9.01,overcast clouds
134,Nanortalik,GL,60.1432,-45.2371,43.11,49,73,3.71,broken clouds
135,Cherskiy,RU,68.75,161.3,34.21,69,67,18.5,broken clouds
136,Faya,SA,18.3851,42.4509,81.12,18,30,12.73,scattered clouds
137,Santa Clara,CU,22.4,-79.9667,77.04,80,100,17.38,overcast clouds
138,Mahebourg,MU,-20.4081,57.7,79.25,61,40,16.11,scattered clouds
139,Sao Filipe,CV,14.8961,-24.4956,76.23,67,18,6.15,few clouds
140,Port Hardy,CA,50.6996,-127.4199,51.8,100,100,3.44,light intensity shower rain
141,San Quintin,MX,30.4833,-115.95,59.45,93,24,8.46,few clouds
142,Longyearbyen,SJ,78.2186,15.6401,40.84,75,75,27.63,light rain
143,Caravelas,BR,-17.7125,-39.2481,72.77,89,67,13.31,broken clouds
144,Elizabeth City,US,36.2946,-76.2511,71.62,80,100,6.91,overcast clouds
145,Thompson,CA,55.7435,-97.8558,35.76,100,100,8.05,overcast clouds
146,Sobolevo,RU,54.4299,31.8996,65.44,58,18,8.21,few clouds
147,Maldonado,UY,-34.6667,-54.9167,43.23,92,96,5.86,overcast clouds
148,Price,US,39.5994,-110.8107,57.11,30,0,8.05,clear sky
149,Saldanha,ZA,-33.0117,17.9442,66.25,70,43,11.01,scattered clouds
150,Tomatlan,MX,19.9333,-105.25,69.04,89,34,1.05,scattered clouds
151,New Norfolk,AU,-42.7826,147.0587,45.72,87,77,1.81,broken clouds
152,Ulladulla,AU,-35.35,150.4667,51.76,68,26,9.26,scattered clouds
153,Butaritari,KI,3.0707,172.7902,81.18,70,24,10.42,few clouds
154,Hualmay,PE,-11.0964,-77.6139,62.62,88,98,3.0,overcast clouds
155,Upernavik,GL,72.7868,-56.1549,26.89,87,24,14.99,few clouds
156,Huarmey,PE,-10.0681,-78.1522,63.54,90,99,5.97,overcast clouds
157,Sosnovo-Ozerskoye,RU,52.5249,111.5418,54.81,81,100,9.98,light rain
158,Chokwe,MZ,-24.5333,32.9833,79.02,47,0,0.6,clear sky
159,Kovdor,RU,67.5662,30.4758,60.01,55,100,4.45,overcast clouds
160,Saint-Philippe,RE,-21.3585,55.7679,78.39,69,23,14.45,few clouds
161,San Andres,CO,12.5847,-81.7006,80.62,89,20,2.3,few clouds
162,Qaqortoq,GL,60.7167,-46.0333,48.2,37,8,4.99,clear sky
163,Goure,NE,13.9835,10.2704,102.02,9,71,7.58,broken clouds
164,Riberalta,BO,-10.9833,-66.1,66.4,94,75,9.22,broken clouds
165,Muana,BR,-1.5283,-49.2167,74.3,94,90,2.98,overcast clouds
166,Bathsheba,BB,13.2167,-59.5167,81.21,83,40,20.71,scattered clouds
167,Chuncheng,CN,22.1731,111.7886,84.11,84,100,10.51,overcast clouds
168,Okhotsk,RU,59.3833,143.3,44.87,77,100,5.55,overcast clouds
169,Dzhebariki-Khaya,RU,62.2167,135.8,75.18,48,18,1.32,few clouds
170,Tasiilaq,GL,65.6145,-37.6368,33.96,55,61,8.14,broken clouds
171,Shingu,JP,33.7333,135.9833,67.24,88,76,2.15,broken clouds
172,Avarua,CK,-21.2078,-159.775,77.05,83,40,12.66,scattered clouds
173,Borogontsy,RU,62.6683,131.1683,74.73,51,68,1.43,broken clouds
174,Comodoro Rivadavia,AR,-45.8667,-67.5,46.26,49,0,9.22,clear sky
175,Rampura,IN,30.25,75.2333,113.09,4,0,8.43,clear sky
176,Dingtao,CN,35.0683,115.5625,89.91,32,100,3.67,light rain
177,Wencheng,CN,33.0559,113.7978,84.61,61,100,6.85,overcast clouds
178,Savannah Bight,HN,16.45,-85.85,81.66,76,100,12.64,overcast clouds
179,Mikhaylovka,RU,50.06,43.2379,81.79,51,73,6.73,broken clouds
180,Klaksvik,FO,62.2266,-6.589,50.92,88,100,19.89,overcast clouds
181,Kudahuvadhoo,MV,2.6708,72.8944,83.62,74,81,13.76,broken clouds
182,Kutum,SD,14.2,24.6667,91.02,20,100,17.13,overcast clouds
183,Neiafu,TO,-18.65,-173.9833,79.84,75,3,15.3,clear sky
184,Mabaruma,GY,8.2,-59.7833,72.63,99,100,2.82,overcast clouds
185,Kajaani,FI,64.2273,27.7285,53.65,82,100,8.05,overcast clouds
186,Clyde River,CA,70.4692,-68.5914,30.43,93,100,4.61,overcast clouds
187,Sisimiut,GL,66.9395,-53.6735,47.91,42,27,6.08,scattered clouds
188,Nikolskoye,RU,59.7035,30.7861,61.88,68,86,10.8,overcast clouds
189,Katima Mulilo,NA,-17.5,24.2667,73.13,33,0,7.54,clear sky
190,Rio Grande,BR,-32.035,-52.0986,55.11,71,2,11.61,clear sky
191,Brainerd,US,46.358,-94.2008,51.26,62,100,3.44,overcast clouds
192,Ahipara,NZ,-35.1667,173.1667,54.54,82,85,3.31,overcast clouds
193,Georgetown,MY,5.4112,100.3354,86.95,68,20,8.05,few clouds
194,Emborion,GR,40.4833,21.55,84.29,45,44,3.56,scattered clouds
195,Isangel,VU,-19.55,169.2667,73.31,84,100,7.96,overcast clouds
196,Arkhangelskaya,RU,45.6796,40.2754,86.38,44,98,10.89,overcast clouds
197,Deputatskiy,RU,69.3,139.9,55.22,62,93,8.08,overcast clouds
198,Nova Olimpia,BR,-14.7972,-57.2881,62.94,89,25,0.51,scattered clouds
199,Leningradskiy,RU,69.3833,178.4167,31.48,92,100,2.13,overcast clouds
200,Auki,SB,-8.7676,160.7034,78.69,85,100,5.37,overcast clouds
201,Fort-Shevchenko,KZ,44.5086,50.263,81.54,32,57,4.88,broken clouds
202,Manta,EC,-0.95,-80.7333,73.18,88,100,6.91,overcast clouds
203,Buraydah,SA,26.326,43.975,106.25,4,0,5.39,clear sky
204,Kruisfontein,ZA,-34.0033,24.7314,65.88,62,69,16.58,broken clouds
205,Saint-Pierre,RE,-21.3393,55.4781,78.48,61,0,35.68,clear sky
206,Pangnirtung,CA,66.1451,-65.7125,39.65,65,10,3.87,clear sky
207,Dunedin,NZ,-45.8742,170.5036,48.79,67,56,8.01,broken clouds
208,Ludvika,SE,60.1496,15.1878,64.6,44,55,5.77,broken clouds
209,Olinda,BR,-8.0089,-34.8553,74.93,94,75,2.3,broken clouds
210,Kurush,RU,41.2841,47.8345,62.89,57,39,0.47,light rain
211,Langham,CA,52.3668,-106.9679,46.02,56,3,6.96,clear sky
212,Lompoc,US,34.6391,-120.4579,58.78,98,100,9.22,mist
213,Jardim,BR,-21.4803,-56.1381,60.35,96,43,3.56,scattered clouds
214,Portland,US,45.5234,-122.6762,56.73,92,100,1.01,overcast clouds
215,Filingue,NE,14.3521,3.3168,100.31,25,0,9.17,clear sky
216,Marzuq,YE,14.4,46.4667,87.87,29,39,10.38,scattered clouds
217,Koroni,GR,36.8,21.95,96.51,50,0,3.04,clear sky
218,Mildura,AU,-34.2,142.15,51.08,72,25,20.27,scattered clouds
219,San Patricio,US,28.017,-97.5169,78.89,95,1,3.87,clear sky
220,Genhe,CN,50.7833,121.5167,57.43,69,100,8.14,overcast clouds
221,Saint George,US,37.1041,-113.5841,72.95,20,0,4.61,clear sky
222,Minab,IR,27.1467,57.0801,110.07,9,0,1.88,clear sky
223,Sakata,JP,38.9167,139.855,57.38,77,75,3.44,broken clouds
224,Beringovskiy,RU,63.05,179.3167,40.82,77,27,4.18,scattered clouds
225,Nome,US,64.5011,-165.4064,48.27,61,0,3.44,clear sky
226,Mount Gambier,AU,-37.8333,140.7667,49.71,94,99,12.68,light rain
227,Puri,IN,19.8,85.85,91.92,85,100,18.25,overcast clouds
228,Coihaique,CL,-45.5752,-72.0662,38.01,100,0,2.3,clear sky
229,Necochea,AR,-38.5473,-58.7368,38.61,74,25,11.61,scattered clouds
230,Geraldton,AU,-28.7667,114.6,59.41,58,55,8.05,broken clouds
231,Toppenish,US,46.3774,-120.3087,56.01,89,100,5.57,overcast clouds
232,Itaituba,BR,-4.2761,-55.9836,70.57,99,100,1.81,overcast clouds
233,Zapolyarnyy,RU,69.4154,30.8136,51.08,76,100,6.06,light rain
234,Pafos,CY,34.7667,32.4167,81.23,57,20,9.22,few clouds
235,Nuuk,GL,64.1835,-51.7216,50.61,43,20,6.91,few clouds
236,Kousseri,CM,12.0769,15.0306,90.54,40,98,18.75,overcast clouds
237,Makokou,GA,0.5738,12.8642,81.45,70,94,3.69,light rain
238,Rafaela,AR,-31.2503,-61.4867,37.99,64,26,1.01,scattered clouds
239,Kolpashevo,RU,58.3131,82.9089,48.6,40,100,12.26,overcast clouds
240,Grand Gaube,MU,-20.0064,57.6608,79.38,56,14,11.99,few clouds
241,Vostok,RU,46.4856,135.8833,43.11,97,100,2.77,overcast clouds
242,Warren,US,39.4334,-84.1666,56.95,83,0,5.75,clear sky
243,Kismayo,SO,-0.3582,42.5454,82.15,69,22,15.3,light rain
244,Pisco,PE,-13.7,-76.2167,61.02,94,100,5.75,mist
245,Mayumba,GA,-3.432,10.6554,78.17,78,19,5.61,few clouds
246,Berdigestyakh,RU,62.0989,126.6992,73.17,40,6,6.33,clear sky
247,Buriti Dos Lopes,BR,-3.175,-41.8669,72.79,99,100,4.25,overcast clouds
248,Thohoyandou,ZA,-22.9456,30.485,72.93,35,0,2.75,clear sky
249,Bowen,AU,-20.0167,148.2333,73.92,78,70,6.71,broken clouds
250,Hofn,IS,64.2539,-15.2082,53.62,32,0,9.22,clear sky
251,Maceio,BR,-9.6658,-35.7353,72.84,94,100,2.3,mist
252,Tacuarembo,UY,-31.7333,-55.9833,38.93,96,6,5.59,clear sky
253,Kaitangata,NZ,-46.2817,169.8464,43.14,87,61,4.65,broken clouds
254,Kasama,ZM,-10.2129,31.1808,71.62,36,24,8.72,few clouds
255,Albert,FR,50.0009,2.651,70.79,70,0,11.5,clear sky
256,Daru,PG,-9.0763,143.2092,79.3,88,87,13.94,overcast clouds
257,Pauini,BR,-7.7136,-66.9764,70.43,99,95,2.01,light rain
258,Kloulklubed,PW,7.0419,134.2556,75.7,70,7,7.9,clear sky
259,Businga,CD,3.3333,20.8833,92.03,43,97,2.01,overcast clouds
260,Marfino,RU,55.7028,37.3822,66.45,45,0,8.95,clear sky
261,Puerto Del Rosario,ES,28.5004,-13.8627,73.15,53,20,16.11,few clouds
262,Pacific Grove,US,36.6177,-121.9166,57.81,91,0,8.01,clear sky
263,Ambilobe,MG,-13.2,49.05,88.83,38,19,12.95,few clouds
264,Cidreira,BR,-30.1811,-50.2056,59.5,71,37,14.16,scattered clouds
265,Svecha,RU,58.2785,47.5164,64.76,59,92,12.1,overcast clouds
266,Tilichiki,RU,60.4667,166.1,50.63,68,18,1.25,few clouds
267,Itarema,BR,-2.9248,-39.9167,75.88,89,95,5.3,overcast clouds
268,Lasa,IT,46.6166,10.7002,73.69,54,10,3.65,clear sky
269,Aras,ES,42.5617,-2.356,72.01,50,0,2.3,clear sky
270,Imbituba,BR,-28.24,-48.6703,53.85,99,87,1.86,overcast clouds
271,Athabasca,CA,54.7169,-113.2854,45.01,75,24,8.39,few clouds
272,Odweyne,SO,9.4092,45.064,88.39,29,33,20.07,scattered clouds
273,Hobart,AU,-42.8794,147.3294,46.06,89,75,2.3,broken clouds
274,Kahului,US,20.8947,-156.47,75.85,77,0,5.99,clear sky
275,Hirara,JP,24.8,125.2833,77.27,94,75,5.75,moderate rain
276,Serik,TR,36.9169,31.0989,80.85,50,3,10.8,clear sky
277,Maroua,CM,10.591,14.3159,84.42,58,0,9.22,clear sky
278,Sao Joaquim,BR,-28.2939,-49.9317,34.63,96,3,3.44,clear sky
279,Lurgan,GB,54.4608,-6.3294,56.01,73,16,12.1,few clouds
280,Prieska,ZA,-29.6641,22.7474,68.65,24,4,11.05,clear sky
281,Iqaluit,CA,63.7506,-68.5145,42.53,56,40,0.0,scattered clouds
282,Valdivia,CL,-39.8142,-73.2459,44.69,96,100,1.48,overcast clouds
283,Chumikan,RU,54.7183,135.315,39.67,96,34,3.58,scattered clouds
284,Rindal,NO,63.0565,9.2124,52.84,70,100,6.78,overcast clouds
285,Atbasar,KZ,51.8,68.3333,62.87,64,81,20.07,broken clouds
286,Dingzhou,CN,38.5131,114.9956,91.51,26,2,6.64,clear sky
287,Abu Kamal,SY,34.4506,40.9171,102.47,12,23,9.19,few clouds
288,Trairi,BR,-3.2778,-39.2689,74.52,94,68,4.03,broken clouds
289,Miles City,US,46.4083,-105.8406,54.57,100,75,5.75,broken clouds
290,Ilulissat,GL,69.2167,-51.1,37.42,65,20,3.44,few clouds
291,Sola,VU,-13.8833,167.55,82.04,63,23,17.63,few clouds
292,Goderich,CA,43.7501,-81.7165,45.91,87,0,2.3,clear sky
293,Nizhniy Kuranakh,RU,58.8353,125.4869,68.05,54,44,4.16,scattered clouds
294,Along,IN,28.1667,94.7667,75.87,97,97,0.67,overcast clouds
295,Riverton,US,40.5219,-111.9391,66.52,46,0,13.0,clear sky
296,De-Kastri,RU,51.4667,140.7833,47.93,76,7,3.58,clear sky
297,Kasempa,ZM,-13.4584,25.8338,71.8,36,0,8.37,clear sky
298,Galesong,ID,-5.3166,119.3661,73.42,76,100,1.68,moderate rain
299,Acarau,BR,-2.8856,-40.12,76.35,87,95,6.24,overcast clouds
300,Cabo San Lucas,MX,22.8909,-109.9124,73.62,70,1,5.01,clear sky
301,Dolinsk,RU,47.35,142.8,41.07,90,98,7.92,light rain
302,Laguna,US,38.421,-121.4238,65.01,71,100,4.61,overcast clouds
303,Fuyu,CN,45.1833,124.8167,59.97,94,100,14.52,moderate rain
304,Katsuura,JP,35.1333,140.3,64.71,72,6,8.5,clear sky
305,Ribeira Grande,PT,38.5167,-28.7,66.6,94,75,12.66,broken clouds
306,Chuy,UY,-33.6971,-53.4616,48.43,84,81,6.33,broken clouds
307,Vitre,FR,48.1178,-1.2058,78.01,59,1,6.35,clear sky
308,Gornopravdinsk,RU,60.05,69.9,45.16,58,100,10.2,overcast clouds
309,Boa Vista,BR,2.8197,-60.6733,75.18,83,75,4.61,broken clouds
310,San Angelo,US,31.4638,-100.437,66.6,85,0,6.91,clear sky
311,Lavrentiya,RU,65.5833,-171.0,40.82,80,75,6.08,broken clouds
312,Kununurra,AU,-15.7667,128.7333,82.38,65,66,3.44,broken clouds
313,Airai,TL,-8.9266,125.4092,62.17,94,79,1.97,broken clouds
314,Kota Belud,MY,6.351,116.4305,81.37,84,90,1.1,overcast clouds
315,Bentong,MY,3.5181,101.9079,85.82,72,100,0.65,overcast clouds
316,Rtishchevo,RU,52.2604,43.7874,69.44,58,93,8.21,overcast clouds
317,Cherbourg,FR,49.6386,-1.6147,62.31,88,100,12.66,overcast clouds
318,Husavik,IS,66.0449,-17.3389,42.04,74,60,10.25,broken clouds
319,Acapulco,MX,16.8634,-99.8901,75.02,94,20,0.0,few clouds
320,Dukat,RU,62.55,155.55,54.72,75,100,1.23,moderate rain
321,Port Lincoln,AU,-34.7333,135.8667,56.77,73,4,27.65,clear sky
322,Alice Springs,AU,-23.7,133.8833,56.75,67,0,4.61,clear sky
323,Jiwani,PK,25.05,61.7417,87.71,68,0,16.06,clear sky
324,Bandundu,CD,-3.3167,17.3667,88.47,40,57,7.34,broken clouds
325,Boca Do Acre,BR,-8.7522,-67.3978,70.93,99,100,2.24,overcast clouds
326,Kulhudhuffushi,MV,6.6221,73.07,82.51,79,56,16.15,broken clouds
327,Bud,US,39.447,-86.1758,60.15,82,4,4.03,clear sky
328,Padang,ID,-0.9492,100.3543,86.05,77,100,2.73,overcast clouds
329,Zabol,AF,32.25,67.25,85.75,6,0,13.4,clear sky
330,Kahama,TZ,-3.8333,32.6,79.93,35,61,7.61,broken clouds
331,Masuguru,TZ,-11.3667,38.4167,85.03,37,29,5.53,scattered clouds
332,San Cristobal,VE,7.7669,-72.225,66.38,96,100,1.59,overcast clouds
333,Panacan,PH,9.2463,118.4082,82.76,75,29,2.33,scattered clouds
334,Poso,ID,-1.3959,120.7524,78.78,85,99,4.9,moderate rain
335,Sterlibashevo,RU,53.4376,55.2578,68.11,78,99,12.12,overcast clouds
336,Amasya,TR,40.6667,35.8333,83.88,51,0,7.38,clear sky
337,Murud,IN,18.3258,72.965,88.56,58,29,13.4,scattered clouds
338,Juneau,US,58.3019,-134.4197,58.21,63,20,3.44,few clouds
339,Nola,IT,40.922,14.5329,96.15,54,43,5.82,scattered clouds
340,Poronaysk,RU,49.2167,143.1167,43.38,77,77,5.35,broken clouds
341,Namibe,AO,-15.1961,12.1522,93.83,22,0,27.63,clear sky
342,Kenai,US,60.5544,-151.2583,53.65,68,40,10.36,scattered clouds
343,Morgan City,US,29.6994,-91.2068,72.0,100,0,0.0,clear sky
344,Tessalit,ML,20.1986,1.0114,101.16,6,3,18.48,clear sky
345,Mandalgovi,MN,45.7625,106.2708,61.34,20,0,22.21,clear sky
346,Gayeri,BF,12.6497,0.4931,96.04,34,1,9.84,clear sky
347,Saryg-Sep,RU,51.5,95.6,75.16,15,11,12.82,few clouds
348,Vallenar,CL,-28.5708,-70.7581,53.22,35,87,3.96,overcast clouds
349,Pakaur,IN,24.6333,87.85,106.54,20,85,6.38,overcast clouds
350,Inuvik,CA,68.3499,-133.7218,31.06,93,100,4.61,light shower snow
351,Great Falls,US,47.5002,-111.3008,52.68,90,40,6.91,scattered clouds
352,Ostrovnoy,RU,68.0531,39.5131,52.18,52,88,25.28,overcast clouds
353,Terebovlya,UA,49.3019,25.71,71.53,59,100,14.07,overcast clouds
354,Kampene,CD,-3.6,26.6667,85.12,44,72,4.72,broken clouds
355,Kavaratti,IN,10.5669,72.642,83.8,75,77,14.18,broken clouds
356,Vila,PT,42.0304,-8.1588,57.7,82,14,3.58,few clouds
357,Port Blair,IN,11.6667,92.75,78.84,83,100,9.22,overcast clouds
358,Capelinha,BR,-17.6914,-42.5158,61.81,94,100,3.76,overcast clouds
359,Dzaoudzi,YT,-12.7887,45.2699,85.89,62,20,13.8,few clouds
360,Camocim,BR,-2.9022,-40.8411,75.25,91,100,6.76,overcast clouds
361,Singaraja,ID,-8.112,115.0882,81.46,83,97,2.39,overcast clouds
362,Suifenhe,CN,44.4,131.1667,47.75,88,100,6.4,overcast clouds
363,Terney,RU,45.0503,136.6092,45.18,90,100,5.91,overcast clouds
364,Lujan,AR,-34.5703,-59.105,47.95,88,100,1.99,overcast clouds
365,Fohnsdorf,AT,47.2183,14.6819,80.69,53,20,3.44,few clouds
366,Galle,LK,6.0367,80.217,82.49,77,54,13.62,broken clouds
367,Turukhansk,RU,65.8167,87.9833,55.35,27,95,6.04,overcast clouds
368,Arcata,US,40.8665,-124.0828,58.19,87,100,1.99,light rain
369,Jinchang,CN,38.4953,102.1739,76.55,19,100,9.89,overcast clouds
370,Barcelos,PT,41.5388,-8.6151,66.92,81,20,5.26,few clouds
371,Chiredzi,ZW,-21.05,31.6667,74.73,46,33,6.42,scattered clouds
372,Sorland,NO,67.667,12.6934,48.06,86,100,22.03,overcast clouds
373,Provins,FR,48.5833,3.1667,78.37,61,44,2.82,scattered clouds
374,Freeport,US,40.6576,-73.5832,65.25,72,0,0.0,clear sky
375,Bay Roberts,CA,47.5999,-53.2648,44.33,84,69,7.0,broken clouds
376,Port-Gentil,GA,-0.7193,8.7815,80.56,78,40,6.91,scattered clouds
377,Alofi,NU,-19.0595,-169.9187,73.29,100,11,4.61,few clouds
378,Ayia Anna,CY,34.9399,33.4843,87.46,67,0,14.97,clear sky
379,Mariveles,PH,14.4833,120.4833,80.56,73,56,7.67,broken clouds
380,Hennenman,ZA,-27.9765,27.0242,60.82,27,0,7.54,clear sky
381,Zile,TR,40.3031,35.8864,80.33,47,0,7.4,clear sky
382,Howard Springs,AU,-12.497,131.047,84.11,86,94,4.18,overcast clouds
383,Ratnagiri,IN,16.9833,73.3,87.26,63,37,14.2,scattered clouds
384,Rassvet,RU,46.8333,40.75,88.63,44,11,11.18,few clouds
385,Port Macquarie,AU,-31.4333,152.9167,53.89,71,0,8.12,clear sky
386,Abu Dhabi,AE,24.4667,54.3667,104.02,21,0,11.5,clear sky
387,General Roca,AR,-39.0333,-67.5833,42.62,67,99,4.63,light rain
388,Zhanaozen,KZ,43.3,52.8,89.2,10,0,7.65,clear sky
389,Chapais,CA,49.7834,-74.8492,49.78,92,91,3.65,overcast clouds
390,Faenza,IT,44.2857,11.8833,84.2,69,0,4.0,clear sky
391,Pangai,TO,-19.8,-174.35,78.62,77,1,12.48,clear sky
392,Kapoeta,SS,4.7717,33.5903,88.5,35,9,21.92,clear sky
393,Mount Isa,AU,-20.7333,139.5,69.57,52,40,10.36,scattered clouds
394,Izumo,JP,35.3667,132.7667,66.15,82,75,18.41,broken clouds
395,Zonguldak,TR,41.25,31.8333,68.85,63,90,7.4,overcast clouds
396,Aklavik,CA,68.2191,-135.0107,31.46,85,89,11.32,overcast clouds
397,Dongsheng,CN,39.8161,109.9776,75.45,12,3,17.87,clear sky
398,Manicore,BR,-5.8092,-61.3003,75.15,94,75,1.14,broken clouds
399,Aykhal,RU,66.0,111.5,60.12,30,7,16.75,clear sky
400,Karaton,ID,-6.3424,106.1045,79.14,86,84,2.24,broken clouds
401,Dvinskoy,RU,62.1535,45.1175,56.44,96,100,5.41,light rain
402,Luocheng,CN,29.3848,104.0286,74.43,73,100,3.11,overcast clouds
403,Sokoni,TZ,-6.4333,39.55,84.06,64,23,17.11,few clouds
404,Vardo,NO,70.3705,31.1107,44.58,93,100,3.44,mist
405,Butembo,CD,0.15,29.2833,74.88,41,20,6.87,few clouds
406,Umm Lajj,SA,25.0213,37.2685,88.92,50,63,12.77,broken clouds
407,Sedniv,UA,51.6447,31.565,70.61,49,9,1.86,clear sky
408,Ulaanbaatar,MN,47.9077,106.8832,55.53,44,40,15.66,scattered clouds
409,Sorong,ID,-0.8833,131.25,81.93,77,99,5.3,light rain
410,Labuhan,ID,-6.8844,112.2051,83.01,74,72,7.34,broken clouds
411,Kangaatsiaq,GL,68.3065,-53.4641,35.76,70,33,11.79,scattered clouds
412,Kant,IN,27.8,79.8,113.67,5,100,11.86,overcast clouds
413,Kindu,CD,-2.95,25.95,86.74,45,62,4.25,broken clouds
414,La Palma,US,33.8464,-118.0467,66.22,82,100,5.75,overcast clouds
415,Veraval,IN,20.9,70.3667,87.55,64,5,14.52,clear sky
416,Santa Teresa,VE,10.2341,-66.6631,71.46,98,100,0.29,overcast clouds
417,Honiara,SB,-9.4333,159.95,79.48,85,100,7.34,overcast clouds
418,Kiama,AU,-34.6833,150.8667,57.38,68,3,1.99,clear sky
419,Lahaina,US,20.8783,-156.6825,75.81,82,5,8.59,clear sky
420,Bubaque,GW,11.2833,-15.8333,79.57,80,100,6.11,overcast clouds
421,Irbil,IQ,36.1926,44.0106,109.22,6,9,16.11,clear sky
422,Grahamstown,ZA,-33.3042,26.5328,61.95,28,66,14.25,broken clouds
423,Natalinsk,RU,56.4739,57.8698,62.15,43,72,11.34,broken clouds
424,Nantucket,US,41.2835,-70.0995,57.34,95,100,8.05,mist
425,Rudbar,AF,30.15,62.6,100.62,6,0,19.19,clear sky
426,Ranot,TH,7.7777,100.3213,83.46,73,100,7.49,overcast clouds
427,Zavetnoye,RU,47.1194,43.8903,89.92,22,24,7.2,few clouds
428,Cabedelo,BR,-6.9811,-34.8339,75.87,85,70,8.63,broken clouds
429,Wenling,CN,28.3669,121.36,73.31,98,100,7.78,overcast clouds
430,Axim,GH,4.8699,-2.2405,82.8,74,100,6.22,light rain
431,Clonakilty,IE,51.6231,-8.8706,57.09,77,98,21.77,overcast clouds
432,Cravo Norte,CO,6.3017,-70.2041,70.9,96,12,1.12,few clouds
433,Pochutla,MX,15.7432,-96.4661,75.02,86,42,2.57,scattered clouds
434,Karratha,AU,-20.7377,116.8463,72.99,51,2,6.24,clear sky
435,Halifax,CA,44.6453,-63.5724,49.21,96,67,1.14,broken clouds
436,Angostura,MX,25.3667,-108.1833,75.0,83,0,5.5,clear sky
437,Fairbanks,US,64.8378,-147.7164,64.4,35,100,9.22,overcast clouds
438,Bilma,NE,18.6853,12.9164,102.45,6,0,6.33,clear sky
439,Sinnamary,GF,5.3833,-52.95,77.52,87,97,9.71,overcast clouds
440,Constitucion,CL,-35.3333,-72.4167,54.93,84,100,18.03,moderate rain
441,Hamilton,US,39.1834,-84.5333,57.78,89,0,0.0,mist
442,Houston,US,29.7633,-95.3633,76.08,81,1,1.01,clear sky
443,Merauke,ID,-8.4667,140.3333,80.28,83,34,14.79,scattered clouds
444,Belyy Yar,RU,53.6039,91.3903,59.86,77,40,4.47,light intensity shower rain
445,Port Moresby,PG,-9.4431,147.1797,76.42,94,40,3.44,haze
446,Warrnambool,AU,-38.3833,142.4833,52.81,84,99,19.22,overcast clouds
447,Coquimbo,CL,-29.9533,-71.3436,55.13,54,100,10.36,overcast clouds
448,San Vicente,AR,-26.6167,-54.1333,49.8,97,18,2.71,few clouds
449,Uaua,BR,-9.8414,-39.4817,67.91,87,60,11.7,broken clouds
450,Bhan,PK,26.5583,67.7214,112.69,4,0,3.11,clear sky
451,Nenjiang,CN,49.1833,125.2167,67.23,52,81,16.08,broken clouds
452,Andenes,NO,69.3143,16.1194,46.38,93,75,19.57,light intensity drizzle
453,Nawa,IN,27.0167,75.0,108.25,11,9,11.54,clear sky
454,Paita,PE,-5.0892,-81.1144,65.66,85,98,10.92,overcast clouds
455,Luderitz,NA,-26.6481,15.1594,77.59,31,0,4.34,clear sky
456,San Jose De Guanipa,VE,8.8872,-64.1651,73.76,89,89,8.12,overcast clouds
457,The Valley,AI,18.217,-63.0578,81.1,81,64,15.01,broken clouds
458,Porto Novo,BJ,6.4965,2.6036,84.02,62,99,6.64,overcast clouds
459,Three Hills,CA,51.7001,-113.2686,56.59,32,100,12.66,overcast clouds
460,Kropotkin,RU,45.4375,40.5756,86.25,49,86,8.95,overcast clouds
461,Baker City,US,44.7749,-117.8344,50.65,90,100,4.61,overcast clouds
462,Geneva,US,41.8875,-88.3054,57.06,72,20,5.75,few clouds
463,Lorengau,PG,-2.0226,147.2712,81.27,71,61,8.93,broken clouds
464,Galbshtadt,RU,53.2264,78.9845,59.09,28,49,10.54,scattered clouds
465,Mahanoro,MG,-19.9,48.8,73.13,80,65,7.36,light rain
466,Lom Sak,TH,16.7798,101.2422,91.29,58,40,6.91,scattered clouds
467,Pokhara,NP,28.2333,83.9833,92.07,28,68,3.22,broken clouds
468,Puerto Ayacucho,VE,5.6639,-67.6236,71.92,97,93,0.92,light rain
469,Hokitika,NZ,-42.7167,170.9667,49.1,79,59,5.59,broken clouds
470,Tuatapere,NZ,-46.1333,167.6833,40.59,89,62,5.01,broken clouds
471,Gat,IL,31.61,34.7642,93.78,30,0,11.81,clear sky
472,Yulara,AU,-25.2406,130.9889,58.17,41,19,2.44,few clouds
473,Mattru,SL,7.6244,-11.8332,74.19,88,100,2.26,overcast clouds
474,Ofunato,JP,39.0717,141.7167,52.86,91,14,2.73,few clouds
475,Quatre Cocos,MU,-20.2078,57.7625,79.09,56,23,21.65,few clouds
476,Mazagao,BR,-0.115,-51.2894,72.59,98,43,2.98,scattered clouds
477,Arvi,IN,20.9833,78.2333,108.34,14,100,10.71,overcast clouds
478,Lloydminster,CA,53.2835,-110.0016,46.62,57,0,4.61,clear sky
479,Tokur,RU,53.1333,132.9,56.23,58,55,3.27,broken clouds
480,Bamiantong,CN,44.9333,130.5333,56.88,80,100,6.62,overcast clouds
481,Treinta Y Tres,UY,-33.2333,-54.3833,42.01,93,30,4.16,scattered clouds
482,Novyy Urengoy,RU,66.0833,76.6333,35.17,76,100,24.63,overcast clouds
483,Zhuhai,CN,22.2769,113.5678,91.85,84,40,12.66,scattered clouds
484,Oktyabrskiy,RU,54.4815,53.471,65.84,88,100,9.6,overcast clouds
485,Olafsvik,IS,64.8945,-23.7142,41.88,71,15,4.72,few clouds
486,Almunecar,ES,36.7339,-3.6907,84.43,54,0,10.78,clear sky
487,Quelimane,MZ,-17.8786,36.8883,78.75,69,75,6.91,broken clouds
488,Coffeyville,US,37.0373,-95.6164,62.91,89,0,3.44,clear sky
489,Los Llanos De Aridane,ES,28.6585,-17.9182,68.13,69,20,16.11,few clouds
490,Zapadnaya Dvina,RU,56.259,32.0745,66.58,42,73,10.31,broken clouds
491,Nemuro,JP,43.3236,145.575,44.67,91,100,16.67,overcast clouds
492,Ixtacomitan,MX,17.4167,-93.1,68.88,94,5,2.66,clear sky
493,Kurumkan,RU,54.3,110.3,65.8,50,100,8.77,overcast clouds
494,Puerto Escondido,MX,15.85,-97.0667,78.39,82,26,3.33,scattered clouds
495,Tanout,NE,14.9709,8.8879,99.01,8,31,2.39,scattered clouds
496,Kemin,KG,42.7846,75.6892,61.72,70,82,6.2,broken clouds
497,Vrangel,RU,42.7297,133.0839,48.7,87,100,12.68,overcast clouds
498,Grindavik,IS,63.8424,-22.4338,45.07,70,75,6.91,broken clouds
499,Kati,ML,12.7441,-8.0726,76.41,31,36,6.82,scattered clouds
500,Santa Rosalia,MX,27.3167,-112.2833,75.36,38,3,6.55,clear sky
501,Kiknur,RU,57.3034,47.2011,65.3,59,30,15.97,scattered clouds
502,Kontagora,NG,10.3999,5.4695,92.3,41,100,6.11,overcast clouds
503,Komsomolskiy,UZ,40.4272,71.7189,84.92,23,0,9.22,clear sky
504,Ippy,CF,6.2679,21.2247,76.59,80,98,5.3,light rain
505,Young,UY,-32.6833,-57.6333,39.2,96,27,7.18,scattered clouds
506,Mecca,SA,21.4267,39.8261,111.11,5,0,12.33,clear sky
507,Yar-Sale,RU,66.8333,70.8333,46.15,30,25,25.68,scattered clouds
508,Saint-Augustin,CA,51.226,-58.6502,44.19,74,100,12.88,overcast clouds
509,Kyabram,AU,-36.3167,145.05,51.87,74,78,11.12,broken clouds
510,Trinidad,BO,-14.8333,-64.9,60.78,94,75,0.0,broken clouds
511,Tual,ID,-5.6667,132.75,84.49,68,74,4.63,broken clouds
512,Banjar,ID,-8.19,114.9675,80.04,89,97,1.52,overcast clouds
513,Swift Current,CA,50.2834,-107.8014,45.41,53,0,9.22,clear sky
514,Tahoua,NE,14.8888,5.2692,94.98,34,0,10.36,clear sky
515,Mingoyo,TZ,-10.1,39.6333,86.79,46,41,8.68,scattered clouds
516,Salinas,US,36.6777,-121.6555,59.56,84,0,5.75,clear sky
517,Camana,PE,-16.6228,-72.7111,63.75,77,96,6.35,overcast clouds
518,Xam Nua,LA,20.4197,104.0439,83.17,60,88,6.17,overcast clouds
519,Whitehorse,CA,60.7161,-135.0538,52.57,46,20,9.22,few clouds
520,Barinas,VE,8.6226,-70.2075,77.04,94,88,5.75,overcast clouds
521,Luanda,AO,-8.8368,13.2343,78.8,73,20,5.75,few clouds
522,Hervey Bay,AU,-25.2986,152.8535,64.02,76,65,14.0,broken clouds
523,Rovaniemi,FI,66.5,25.7167,54.81,87,75,6.91,shower rain
524,Alugan,PH,12.2188,125.4808,82.06,80,83,5.5,broken clouds
525,Mnogovershinnyy,RU,53.9353,139.9242,50.02,60,16,3.49,few clouds
526,Ust-Uda,RU,54.1742,103.0304,65.14,37,93,5.7,overcast clouds
527,Tungor,RU,53.3808,142.9564,46.65,76,62,9.91,broken clouds
528,Palmares Do Sul,BR,-30.2578,-50.5097,55.29,78,27,8.81,scattered clouds
529,Winchester,GB,51.0651,-1.3187,61.68,77,75,21.85,broken clouds
530,Cedar City,US,37.6775,-113.0619,61.77,20,0,10.36,clear sky
531,Yamada,JP,39.4667,141.95,53.56,91,90,2.13,overcast clouds
532,Killybegs,IE,54.6333,-8.45,58.71,59,2,10.36,clear sky
533,Lodja,CD,-3.4833,23.4333,90.75,33,57,6.33,broken clouds
534,Muskogee,US,35.5834,-95.3336,60.35,94,0,3.44,clear sky
535,Saint-Ambroise,CA,48.5501,-71.3324,48.52,98,37,4.81,scattered clouds
536,Tiksi,RU,71.6872,128.8694,45.77,84,80,5.21,light rain
537,Tuam,IE,53.5167,-8.85,58.93,67,0,16.02,clear sky
538,Rawson,AR,-43.3002,-65.1023,46.58,61,51,13.76,broken clouds
539,Altay,CN,47.8667,88.1167,68.4,31,91,12.55,overcast clouds
540,Araouane,ML,18.9048,-3.5265,100.44,20,61,12.3,broken clouds
541,East London,ZA,-33.0153,27.9116,70.74,40,0,9.22,clear sky
542,Kastamonu,TR,41.5,33.6667,80.62,43,2,11.32,clear sky
543,Champerico,GT,14.3,-91.9167,77.27,87,95,6.69,overcast clouds
544,Khon Buri,TH,14.5254,102.2459,88.54,72,57,8.41,broken clouds
545,Waingapu,ID,-9.6567,120.2641,81.21,78,81,4.94,broken clouds
546,Sayyan,YE,15.1718,44.3244,73.04,25,60,15.84,broken clouds
547,Dawlatabad,AF,36.4141,64.9053,90.09,11,0,10.33,clear sky
548,Manali,IN,13.1667,80.2667,93.29,80,19,15.86,few clouds
549,Kuandian,CN,40.7286,124.7847,66.7,75,100,8.1,overcast clouds
550,Enshi,CN,30.3,109.4833,82.38,87,85,1.25,overcast clouds
551,Ust-Kulom,RU,61.6864,53.6902,64.98,25,0,8.5,clear sky
552,Ewo,CG,-0.8725,14.8206,87.04,52,37,5.82,scattered clouds
553,Bambanglipuro,ID,-7.95,110.2833,80.69,76,33,7.47,scattered clouds
554,Kisangani,CD,0.5167,25.2,90.07,45,27,3.2,scattered clouds
555,Surt,LY,31.2089,16.5887,79.77,54,0,9.08,clear sky
556,Hambantota,LK,6.1241,81.1185,84.45,72,100,22.79,overcast clouds
557,Obo,CF,5.3998,26.4869,90.18,43,50,3.36,scattered clouds
558,Bonfim,BR,3.0833,-59.95,73.76,90,100,3.33,overcast clouds
559,Mishkino,RU,55.3389,63.9175,57.13,49,86,8.08,overcast clouds
560,Belaya Gora,RU,68.5333,146.4167,51.31,52,23,14.03,few clouds
561,Faanui,PF,-16.4833,-151.75,80.8,71,5,18.16,clear sky
562,Salihorsk,BY,52.7876,27.5415,68.41,56,91,3.4,overcast clouds
563,Santa Rosa,PH,14.3122,121.1114,89.11,72,47,5.75,light rain
564,Lugovskoy,RU,56.9585,64.529,59.36,33,5,6.38,clear sky
565,Sistranda,NO,63.7256,8.834,48.16,83,100,25.86,overcast clouds
566,Isiro,CD,2.7739,27.616,89.96,36,45,3.62,scattered clouds
567,Carmen,MX,18.6333,-91.8333,77.76,79,13,4.36,few clouds
568,Arkhara,RU,49.4212,130.0842,58.55,64,83,9.53,broken clouds
569,Mingshui,CN,36.7167,117.5,87.85,33,84,7.76,light rain
570,Luwuk,ID,-0.9516,122.7875,79.05,88,85,2.51,overcast clouds
571,Katete,UG,-0.7818,29.7544,81.79,34,72,6.55,broken clouds
572,Mufulira,ZM,-12.5498,28.2407,71.11,38,4,6.87,clear sky
573,Sept-Iles,CA,50.2001,-66.3821,51.06,72,20,10.36,few clouds
574,Kon Tum,VN,14.35,108.0,80.33,80,70,4.27,broken clouds
575,Mogadishu,SO,2.0371,45.3438,87.67,70,75,17.27,broken clouds
576,Hessisch Oldendorf,DE,52.1667,9.25,72.12,58,97,9.53,overcast clouds
577,Mto Wa Mbu,TZ,-3.35,35.85,80.2,37,52,6.69,broken clouds
578,Villamontes,BO,-21.25,-63.5,48.7,81,96,3.83,overcast clouds
579,Bandar,ID,2.05,99.75,85.51,71,100,0.94,overcast clouds
580,Qasigiannguit,GL,68.8193,-51.1922,37.65,67,27,2.91,scattered clouds
581,Scarborough,GB,54.2797,-0.4044,53.92,76,63,8.99,broken clouds
582,Sakakah,SA,29.9697,40.2064,107.17,7,91,4.76,overcast clouds
583,Tautira,PF,-17.7333,-149.15,79.45,76,71,19.44,light rain
584,Nyzhnya Duvanka,UA,49.5846,38.1743,66.85,83,100,12.57,overcast clouds
585,Tateyama,JP,34.9833,139.8667,70.11,70,3,9.55,clear sky
586,La Sarre,CA,48.8002,-79.1996,46.63,96,98,10.33,light rain
587,Vestmanna,FO,62.1564,-7.1664,49.12,87,100,20.71,overcast clouds
588,Vozhega,RU,60.4725,40.2213,61.81,62,100,11.25,overcast clouds
589,Abalak,RU,58.1286,68.5944,55.78,40,25,9.51,scattered clouds
590,Bintulu,MY,3.1667,113.0333,88.21,62,20,3.44,few clouds
591,Mozarlandia,BR,-14.7447,-50.5706,66.45,53,77,5.5,broken clouds
592,Pavlodar,KZ,52.3,76.95,62.4,23,0,6.71,clear sky
593,Twentynine Palms,US,34.1356,-116.0542,75.34,27,61,4.85,broken clouds
594,Gouyave,GD,12.1646,-61.7296,79.57,83,20,19.57,few clouds
595,Ghanzi,BW,-21.5667,21.7833,68.0,35,0,10.98,clear sky
596,Tynda,RU,55.1667,124.7167,62.76,74,37,1.92,light rain
597,Iwaki,JP,37.05,140.8833,65.01,79,83,1.01,light rain
598,Douglas,US,41.3,-96.167,66.38,64,100,6.91,overcast clouds
599,Znamenskoye,RU,57.1281,73.8282,52.16,45,97,10.38,overcast clouds
600,Meadow Lake,US,34.8014,-106.5436,65.91,28,99,7.02,overcast clouds
601,Abaete,BR,-19.16,-45.4458,63.16,83,29,5.03,scattered clouds
602,Tura,IN,25.5198,90.2201,82.13,83,68,5.53,broken clouds
603,Teguldet,RU,57.3064,88.1667,52.03,33,100,7.4,overcast clouds
604,Ifakara,TZ,-8.1333,36.6833,81.81,41,4,4.74,clear sky
605,Harper,LR,4.375,-7.7169,80.78,79,89,8.39,light rain
606,Muros,ES,42.7762,-9.0603,69.67,73,78,1.21,broken clouds
607,Tuy Hoa,VN,13.0833,109.3,86.36,70,92,7.9,overcast clouds
608,Miranda,CO,3.2499,-76.2281,64.53,96,90,2.28,overcast clouds
609,Viedma,AR,-40.8135,-62.9967,45.5,58,75,18.5,broken clouds
610,Makakilo City,US,21.3469,-158.0858,73.72,69,0,6.91,clear sky
611,Potchefstroom,ZA,-26.7167,27.1,63.12,25,0,5.66,clear sky
612,Teguise,ES,29.0605,-13.564,70.02,53,40,16.11,scattered clouds
613,Pergamino,AR,-33.89,-60.5736,40.17,86,98,1.01,light rain
614,Natalio,PY,-26.7167,-55.0833,48.07,99,22,2.46,few clouds
615,Moose Factory,CA,51.2585,-80.6094,48.2,81,100,5.75,overcast clouds
616,Teya,RU,60.3778,92.6267,44.78,59,100,8.75,light rain
617,Vorontsovka,RU,50.6132,40.3549,69.15,72,100,11.25,overcast clouds
618,Cacak,RS,43.8914,20.3497,83.8,38,76,3.62,broken clouds
619,Jalingo,NG,8.8833,11.3667,86.4,61,98,8.21,overcast clouds
620,Timra,SE,62.487,17.3257,60.48,51,100,14.97,overcast clouds
621,Corralillo,CU,22.9819,-80.5856,76.93,87,100,18.99,light rain
622,Lingao,CN,19.9103,109.6859,86.77,70,98,13.6,light rain
623,Jambi,ID,-1.6,103.6167,81.5,79,98,3.36,overcast clouds
624,Oranjestad,AW,12.524,-70.027,80.71,85,51,21.41,broken clouds
625,Sambava,MG,-14.2667,50.1667,76.42,79,12,15.39,light rain
626,Progreso,MX,21.2833,-89.6667,75.31,90,56,5.19,broken clouds
627,Tpig,RU,41.7801,47.589,71.08,57,77,6.38,light rain
628,Djambala,CG,-2.5447,14.7533,81.34,54,14,6.96,light rain
629,Tadine,NC,-21.55,167.8833,69.87,75,8,9.53,clear sky
630,Samarai,PG,-10.6167,150.6667,82.17,83,59,11.95,broken clouds
631,Mateus Leme,BR,-19.9864,-44.4278,64.13,91,96,5.03,overcast clouds
632,Beidao,CN,34.5686,105.8933,79.38,35,73,7.96,broken clouds
633,Lagos,NG,6.5833,3.75,86.32,65,100,5.12,overcast clouds
634,College,US,64.8569,-147.8028,64.38,34,75,9.22,broken clouds
635,Prince Rupert,CA,54.3161,-130.3201,51.49,93,100,10.36,light rain
636,Rocha,UY,-34.4833,-54.3333,44.01,90,89,5.7,overcast clouds
637,Lahat,ID,-3.8,103.5333,78.87,93,88,0.18,overcast clouds
638,Port Keats,AU,-14.25,129.55,80.6,71,40,7.09,scattered clouds
639,El Guamo,CO,10.0316,-74.9761,73.87,96,100,0.13,overcast clouds
640,Haines Junction,CA,60.7522,-137.5108,40.95,75,17,3.44,few clouds
641,Zyryanskoye,RU,56.8306,86.6258,50.7,50,93,11.18,light rain
642,Poya,NC,-21.35,165.15,70.45,82,18,4.72,few clouds
643,Cancun,MX,21.1743,-86.8466,75.13,94,40,6.91,scattered clouds
644,Newport,GB,51.5877,-2.9984,59.25,77,100,24.79,overcast clouds
645,Vaitape,PF,-16.5167,-151.75,80.74,71,5,18.34,clear sky
646,Betanzos,ES,43.2804,-8.2147,67.12,79,75,6.91,broken clouds
647,Broome,US,42.2506,-75.833,53.46,86,32,2.39,scattered clouds
648,Lishu,CN,43.3047,124.3278,61.63,91,100,18.28,heavy intensity rain
649,Lapeer,US,43.0514,-83.3188,48.67,100,0,0.0,clear sky
650,Sibolga,ID,1.7427,98.7792,82.45,74,88,1.74,overcast clouds
651,Ende,ID,-8.8432,121.6623,78.87,88,96,2.57,moderate rain
652,Piacabucu,BR,-10.4056,-36.4344,77.07,85,77,4.63,broken clouds
653,Pingliang,CN,35.5392,106.6861,79.56,24,98,6.87,overcast clouds
654,Leusden,NL,52.1325,5.4319,68.97,62,98,4.0,overcast clouds
655,Bronnoysund,NO,65.4625,12.1997,50.0,87,75,16.11,light intensity shower rain
656,Pathein,MM,16.7833,94.7333,87.98,61,97,9.04,heavy intensity rain
657,Camacha,PT,33.0833,-16.3333,65.62,64,20,11.5,few clouds
658,Bosaso,SO,11.2842,49.1816,93.18,62,20,16.11,few clouds
659,Bacungan,PH,9.9106,118.7022,86.05,74,20,4.61,few clouds
660,Havelock,US,34.8791,-76.9013,73.38,95,100,1.99,overcast clouds
661,Takoradi,GH,4.8845,-1.7554,82.22,76,99,6.46,light rain
662,Banda Aceh,ID,5.5577,95.3222,85.14,68,52,9.4,broken clouds
663,Raahe,FI,64.6833,24.4833,55.49,91,98,8.93,overcast clouds
664,Jamame,SO,0.0722,42.7506,85.55,59,31,13.73,light rain
665,Los Algarrobos,PA,8.5,-82.4333,72.82,93,80,2.04,broken clouds
666,Wattegama,LK,6.7989,81.4808,92.73,47,79,11.32,broken clouds
667,Ilhabela,BR,-23.7781,-45.3581,65.46,89,99,8.7,overcast clouds
668,Iquique,CL,-20.2208,-70.1431,59.04,68,64,5.37,broken clouds
669,Altamont,US,42.2068,-121.7372,48.04,93,100,3.44,light rain
670,Lata,PT,40.1629,-8.3327,66.07,56,62,7.9,broken clouds
671,Buala,SB,-8.145,159.5921,80.62,79,100,4.29,overcast clouds
672,Yarada,IN,17.65,83.2667,89.92,79,75,10.36,mist
673,Lima,PE,-12.0432,-77.0282,61.9,87,100,5.75,mist
674,Changde,CN,29.0464,111.6783,85.69,81,70,4.54,light rain
675,Aylmer,CA,42.7668,-80.983,46.51,74,0,7.45,clear sky
676,Darhan,MN,49.4867,105.9228,64.02,36,100,10.96,overcast clouds
677,Hanmer Springs,NZ,-42.5167,172.8167,40.77,75,10,4.79,clear sky
678,Fort Nelson,CA,58.8053,-122.7002,54.99,58,40,2.3,scattered clouds
679,Jalu,LY,29.0331,21.5482,90.86,26,0,13.94,clear sky
680,La Ronge,CA,55.1001,-105.2842,34.05,80,40,0.0,scattered clouds
681,Port Hedland,AU,-20.3167,118.5667,71.65,68,4,5.75,clear sky
682,Richards Bay,ZA,-28.783,32.0377,73.15,37,0,3.44,clear sky
683,Domoni,KM,-12.2569,44.5319,80.56,69,51,10.65,broken clouds
684,Alihe,CN,50.5667,123.7167,62.33,62,100,6.73,overcast clouds
685,Lagoa,PT,39.05,-27.9833,63.46,94,100,21.77,light rain
686,Tecpan,GT,14.7623,-90.9947,54.9,93,83,0.65,broken clouds
687,Turayf,SA,31.6725,38.6637,97.05,14,0,4.61,clear sky
688,Puerto Cabello,VE,10.4731,-68.0125,76.55,76,96,3.76,overcast clouds
689,Pozhva,RU,59.0912,56.0847,60.53,40,0,8.59,clear sky
690,Doctor Juan Leon Mallorquin,PY,-25.4,-55.2667,53.33,93,86,3.18,overcast clouds
691,Pallapatti,IN,11.6593,78.1342,96.28,38,99,4.0,overcast clouds
